{
   "Metadata": {
      "DateCreated": "03/29/2021",
      "Tool": "emod-api",
      "Author": "jbloedow",
      "IdReference": "england_measles",
      "NodeCount": 907
   },
   "Defaults": {
      "NodeAttributes": {
         "Altitude": 0,
         "Airport": 1,
         "Region": 1,
         "Seaport": 1,
         "BirthRate": 9.602345281206754e-05,
         "InfectivityMultiplier": 1.0,
         "InfectivityBoxcarAmplitude": 1.0,
         "InfectivityBoxcarStartTime": 100,
         "InfectivityBoxcarEndTime": 330
      },
      "IndividualAttributes": {
         "PrevalenceDist_Description": "No initial prevalence",
         "InitialPrevalence": 0,
         "RiskDistributionFlag": 1,
         "RiskDistribution1": 0.5,
         "RiskDistribution2": 1.5,
         "MigrationDist_Description": "No migration heterogeneity",
         "MigrationHeterogeneityDistributionFlag": 0,
         "MigrationHeterogeneityDistribution1": 1,
         "MigrationHeterogeneityDistribution2": 0,
         "AgeDistribution": {
            "NumDistributionAxes": 0,
            "ResultUnits": "years",
            "ResultScaleFactor": 365,
            "ResultValues": [
               0,
               1,
               2,
               3,
               4,
               5,
               6,
               7,
               8,
               9,
               10,
               11,
               12,
               13,
               14,
               15,
               20,
               25,
               30,
               35,
               40,
               45,
               50,
               55,
               60,
               65,
               70,
               75,
               80,
               85,
               90
            ],
            "DistributionValues": [
               0.0,
               0.03859274,
               0.07564586,
               0.11132000666666667,
               0.14566645,
               0.17873473999999998,
               0.21057195666666667,
               0.2412233,
               0.2707339266666667,
               0.29914623333333334,
               0.32650111,
               0.3528379933333333,
               0.37819445999999995,
               0.40260638,
               0.42610988666666666,
               0.4487385333333333,
               0.5498574633333334,
               0.63350642,
               0.7027036833333333,
               0.7599455199999999,
               0.80729781,
               0.8464692933333333,
               0.87887322,
               0.90567886,
               0.9278534166666667,
               0.9461967533333334,
               0.9613710200000001,
               0.9739236466666666,
               0.9843076333333334,
               0.99289762,
               1.0
            ]
         },
         "MortalityDistribution": {
            "NumDistributionAxes": 2,
            "AxisNames": [
               "gender",
               "age"
            ],
            "AxisUnits": [
               "male=0,female=1",
               "years"
            ],
            "AxisScaleFactors": [
               1,
               365
            ],
            "NumPopulationGroups": [
               2,
               14
            ],
            "PopulationGroups": [
               [
                  0,
                  1
               ],
               [
                  0,
                  0.0001,
                  0.08082191780821918,
                  0.08092191780821918,
                  1,
                  1.0001,
                  5,
                  5.0001,
                  15,
                  15.0001,
                  50,
                  50.0001,
                  90,
                  90.0001
               ]
            ],
            "ResultScaleFactor": 1,
            "ResultUnits": "daily probability of dying",
            "ResultValues": [
               [
                  0,
                  0.0019158015385118965,
                  0.0019158015385118965,
                  0.0001717560763629944,
                  0.0001717560763629944,
                  4.9704718676046866e-05,
                  4.9704718676046866e-05,
                  5.534972988163744e-06,
                  5.534972988163744e-06,
                  1.0006476080515192e-05,
                  1.0006476080515192e-05,
                  0.0003153728749953899,
                  0.0003153728749953899,
                  0.99
               ],
               [
                  0,
                  0.0019158015385118965,
                  0.0019158015385118965,
                  0.0001717560763629944,
                  0.0001717560763629944,
                  4.9704718676046866e-05,
                  4.9704718676046866e-05,
                  5.534972988163744e-06,
                  5.534972988163744e-06,
                  1.0006476080515192e-05,
                  1.0006476080515192e-05,
                  0.0003153728749953899,
                  0.0003153728749953899,
                  0.99
               ]
            ]
         },
         "SusceptibilityDist_Description": "Rough initialization to reduce burn-in and prevent huge outbreaks at sim start.  Exponential distribution, Average age at infection ~2.5 years, minimum susceptibility is 2.5% at old ages",
         "SusceptibilityDistribution": {
            "DistributionValues": [
               [
                  0,
                  365,
                  730,
                  1095,
                  1460,
                  1825,
                  2190,
                  2555,
                  2920,
                  3285,
                  3650,
                  4015,
                  4380,
                  4745,
                  5110,
                  5475,
                  5840,
                  6205,
                  6570,
                  6935,
                  7300,
                  7665,
                  8030,
                  8395,
                  8760,
                  9125,
                  9490,
                  9855,
                  10220,
                  10585,
                  10950,
                  11315,
                  11680,
                  12045,
                  12410,
                  12775,
                  13140,
                  13505,
                  13870,
                  14235,
                  14600,
                  14965,
                  15330,
                  15695,
                  16060,
                  16425,
                  16790,
                  17155,
                  17520,
                  17885,
                  18250,
                  18615,
                  18980,
                  19345,
                  19710,
                  20075,
                  20440,
                  20805,
                  21170,
                  21535,
                  21900,
                  22265,
                  22630,
                  22995,
                  23360,
                  23725,
                  24090,
                  24455,
                  24820,
                  25185,
                  25550,
                  25915,
                  26280,
                  26645,
                  27010,
                  27375,
                  27740,
                  28105,
                  28470,
                  28835,
                  29200,
                  29565,
                  29930,
                  30295,
                  30660,
                  31025,
                  31390,
                  31755,
                  32120,
                  32485,
                  32850,
                  33215,
                  33580,
                  33945,
                  34310,
                  34675,
                  35040,
                  35405,
                  35770,
                  36135
               ]
            ],
            "ResultScaleFactor": 1,
            "ResultValues": [
               [
                  1.0,
                  1.0,
                  0.7639118261738191,
                  0.5849904480610546,
                  0.44939339960686053,
                  0.346630053250893,
                  0.26875,
                  0.20972795654345475,
                  0.16499761201526367,
                  0.13109834990171515,
                  0.10540751331272324,
                  0.0859375,
                  0.0711819891358637,
                  0.05999940300381591,
                  0.05152458747542878,
                  0.04510187832818082,
                  0.04023437500000001,
                  0.03654549728396593,
                  0.03374985075095398,
                  0.0316311468688572,
                  0.030025469582045206,
                  0.028808593750000003,
                  0.027886374320991482,
                  0.027187462687738497,
                  0.0266577867172143,
                  0.026256367395511303,
                  0.025952148437500003,
                  0.02572159358024787,
                  0.025546865671934624,
                  0.025414446679303575,
                  0.025314091848877826,
                  0.025238037109375,
                  0.02518039839506197,
                  0.025136716417983658,
                  0.025103611669825894,
                  0.02507852296221946,
                  0.025059509277343753,
                  0.025045099598765493,
                  0.025034179104495916,
                  0.025025902917456475,
                  0.025019630740554865,
                  0.025014877319335938,
                  0.025011274899691373,
                  0.025008544776123978,
                  0.02500647572936412,
                  0.025004907685138716,
                  0.025003719329833987,
                  0.025002818724922844,
                  0.025002136194030997,
                  0.02500161893234103,
                  0.025001226921284682,
                  0.025000929832458496,
                  0.025000704681230713,
                  0.02500053404850775,
                  0.02500040473308526,
                  0.02500030673032117,
                  0.025000232458114627,
                  0.02500017617030768,
                  0.02500013351212694,
                  0.025000101183271315,
                  0.025000076682580294,
                  0.025000058114528656,
                  0.02500004404257692,
                  0.025000033378031736,
                  0.02500002529581783,
                  0.025000019170645073,
                  0.025000014528632167,
                  0.02500001101064423,
                  0.025000008344507933,
                  0.02500000632395446,
                  0.02500000479266127,
                  0.02500000363215804,
                  0.02500000275266106,
                  0.025000002086126984,
                  0.025000001580988616,
                  0.02500000119816532,
                  0.025000000908039513,
                  0.025000000688165266,
                  0.025000000521531746,
                  0.025000000395247156,
                  0.02500000029954133,
                  0.025000000227009878,
                  0.025000000172041317,
                  0.02500000013038294,
                  0.02500000009881179,
                  0.025000000074885335,
                  0.025000000056752472,
                  0.02500000004301033,
                  0.025000000032595737,
                  0.02500000002470295,
                  0.025000000018721335,
                  0.025000000014188117,
                  0.025000000010752584,
                  0.025000000008148934,
                  0.02500000000617574,
                  0.025000000004680334,
                  0.025000000003547032,
                  0.025000000002688146,
                  0.025000000002037236,
                  0.025000000001543937
               ]
            ]
         },
         "SusceptibilityDistributionFlag": 0,
         "SusceptibilityDistribution1": 1,
         "SusceptibilityDistribution2": 0
      },
      "IndividualProperties": [
         {
            "Property": "Age_Bin",
            "Age_Bin_Edges_In_Years": [
               0,
               1,
               2,
               -1
            ],
            "Transitions": [],
            "TransmissionMatrix": {
               "Route": "Contact",
               "Matrix": [
                  [
                     0.2,
                     0.4,
                     1.0
                  ],
                  [
                     0.2,
                     0.4,
                     1.0
                  ],
                  [
                     0.2,
                     0.4,
                     1.0
                  ]
               ]
            }
         }
      ]
   },
   "Nodes": [
      {
         "NodeID": 1390887526,
         "NodeAttributes": {
            "Latitude": 51.643,
            "Longitude": -3.135,
            "InitialPopulation": 19150,
            "Id": 1390887526,
            "FacilityName": "Abercarn"
         }
      },
      {
         "NodeID": 1388462702,
         "NodeAttributes": {
            "Latitude": 51.712,
            "Longitude": -3.442,
            "InitialPopulation": 39750,
            "Id": 1388462702,
            "FacilityName": "Aberdare"
         }
      },
      {
         "NodeID": 1390887536,
         "NodeAttributes": {
            "Latitude": 51.733,
            "Longitude": -3.137,
            "InitialPopulation": 28630,
            "Id": 1390887536,
            "FacilityName": "Abertillery"
         }
      },
      {
         "NodeID": 1384596162,
         "NodeAttributes": {
            "Latitude": 52.415,
            "Longitude": -3.935,
            "InitialPopulation": 11360,
            "Id": 1384596162,
            "FacilityName": "Aberystwyth.RD"
         }
      },
      {
         "NodeID": 1405108845,
         "NodeAttributes": {
            "Latitude": 51.7,
            "Longitude": -1.328,
            "InitialPopulation": 19860,
            "Id": 1405108845,
            "FacilityName": "Abingdon.RD"
         }
      },
      {
         "NodeID": 1396917091,
         "NodeAttributes": {
            "Latitude": 53.752,
            "Longitude": -2.372,
            "InitialPopulation": 36850,
            "Id": 1396917091,
            "FacilityName": "Accrington"
         }
      },
      {
         "NodeID": 1413497430,
         "NodeAttributes": {
            "Latitude": 51.51,
            "Longitude": -0.265,
            "InitialPopulation": 54530,
            "Id": 1413497430,
            "FacilityName": "Acton"
         }
      },
      {
         "NodeID": 1406157644,
         "NodeAttributes": {
            "Latitude": 53.562,
            "Longitude": -1.193,
            "InitialPopulation": 17770,
            "Id": 1406157644,
            "FacilityName": "Adwick.le.Street"
         }
      },
      {
         "NodeID": 1381974820,
         "NodeAttributes": {
            "Latitude": 53.23,
            "Longitude": -4.268,
            "InitialPopulation": 10320,
            "Id": 1381974820,
            "FacilityName": "Aethwy.RD"
         }
      },
      {
         "NodeID": 1401176748,
         "NodeAttributes": {
            "Latitude": 52.233,
            "Longitude": -1.832,
            "InitialPopulation": 12220,
            "Id": 1401176748,
            "FacilityName": "Alcester.RD"
         }
      },
      {
         "NodeID": 1409565238,
         "NodeAttributes": {
            "Latitude": 51.247,
            "Longitude": -0.762,
            "InitialPopulation": 23740,
            "Id": 1409565238,
            "FacilityName": "Aldershot"
         }
      },
      {
         "NodeID": 1400455897,
         "NodeAttributes": {
            "Latitude": 52.602,
            "Longitude": -1.92,
            "InitialPopulation": 24630,
            "Id": 1400455897,
            "FacilityName": "Aldridge"
         }
      },
      {
         "NodeID": 1404715796,
         "NodeAttributes": {
            "Latitude": 53.095,
            "Longitude": -1.382,
            "InitialPopulation": 21090,
            "Id": 1404715796,
            "FacilityName": "Alfreton"
         }
      },
      {
         "NodeID": 1402225707,
         "NodeAttributes": {
            "Latitude": 55.423,
            "Longitude": -1.693,
            "InitialPopulation": 11330,
            "Id": 1402225707,
            "FacilityName": "Alnwick.RD"
         }
      },
      {
         "NodeID": 1402159986,
         "NodeAttributes": {
            "Latitude": 53.878,
            "Longitude": -1.703,
            "InitialPopulation": 25260,
            "Id": 1402159986,
            "FacilityName": "Alreborough"
         }
      },
      {
         "NodeID": 1408188967,
         "NodeAttributes": {
            "Latitude": 51.122,
            "Longitude": -0.937,
            "InitialPopulation": 18520,
            "Id": 1408188967,
            "FacilityName": "Alton.RD"
         }
      },
      {
         "NodeID": 1397048118,
         "NodeAttributes": {
            "Latitude": 53.383,
            "Longitude": -2.353,
            "InitialPopulation": 36690,
            "Id": 1397048118,
            "FacilityName": "Altrincham"
         }
      },
      {
         "NodeID": 1410810474,
         "NodeAttributes": {
            "Latitude": 51.677,
            "Longitude": -0.605,
            "InitialPopulation": 39390,
            "Id": 1410810474,
            "FacilityName": "Amersham.RD"
         }
      },
      {
         "NodeID": 1401438765,
         "NodeAttributes": {
            "Latitude": 51.172,
            "Longitude": -1.793,
            "InitialPopulation": 13340,
            "Id": 1401438765,
            "FacilityName": "Amesbury.RD"
         }
      },
      {
         "NodeID": 1411465876,
         "NodeAttributes": {
            "Latitude": 52.027,
            "Longitude": -0.522,
            "InitialPopulation": 20220,
            "Id": 1411465876,
            "FacilityName": "Ampthill.RD"
         }
      },
      {
         "NodeID": 1403929137,
         "NodeAttributes": {
            "Latitude": 51.207,
            "Longitude": -1.4780000000000002,
            "InitialPopulation": 13310,
            "Id": 1403929137,
            "FacilityName": "Andover"
         }
      },
      {
         "NodeID": 1403732529,
         "NodeAttributes": {
            "Latitude": 51.207,
            "Longitude": -1.507,
            "InitialPopulation": 11070,
            "Id": 1403732529,
            "FacilityName": "Andover.RD"
         }
      },
      {
         "NodeID": 1406812937,
         "NodeAttributes": {
            "Latitude": 53.003,
            "Longitude": -1.113,
            "InitialPopulation": 18190,
            "Id": 1406812937,
            "FacilityName": "Arnold"
         }
      },
      {
         "NodeID": 1402356490,
         "NodeAttributes": {
            "Latitude": 53.015,
            "Longitude": -1.683,
            "InitialPopulation": 10930,
            "Id": 1402356490,
            "FacilityName": "Ashbourne.RD"
         }
      },
      {
         "NodeID": 1404060392,
         "NodeAttributes": {
            "Latitude": 52.727,
            "Longitude": -1.46,
            "InitialPopulation": 12930,
            "Id": 1404060392,
            "FacilityName": "Ashby.de.la.Zouch.RD"
         }
      },
      {
         "NodeID": 1422410282,
         "NodeAttributes": {
            "Latitude": 51.147,
            "Longitude": 0.867,
            "InitialPopulation": 20180,
            "Id": 1422410282,
            "FacilityName": "Ashford"
         }
      },
      {
         "NodeID": 1403208718,
         "NodeAttributes": {
            "Latitude": 55.18,
            "Longitude": -1.568,
            "InitialPopulation": 26920,
            "Id": 1403208718,
            "FacilityName": "Ashington"
         }
      },
      {
         "NodeID": 1394754371,
         "NodeAttributes": {
            "Latitude": 53.49,
            "Longitude": -2.642,
            "InitialPopulation": 17550,
            "Id": 1394754371,
            "FacilityName": "Ashton.in.Makerfield"
         }
      },
      {
         "NodeID": 1399210820,
         "NodeAttributes": {
            "Latitude": 53.492,
            "Longitude": -2.083,
            "InitialPopulation": 44310,
            "Id": 1399210820,
            "FacilityName": "Ashton.u.Lyne"
         }
      },
      {
         "NodeID": 1393705697,
         "NodeAttributes": {
            "Latitude": 52.672,
            "Longitude": -2.777,
            "InitialPopulation": 20230,
            "Id": 1393705697,
            "FacilityName": "Atcham.RD"
         }
      },
      {
         "NodeID": 1395934024,
         "NodeAttributes": {
            "Latitude": 53.527,
            "Longitude": -2.492,
            "InitialPopulation": 19390,
            "Id": 1395934024,
            "FacilityName": "Atherton"
         }
      },
      {
         "NodeID": 1398948673,
         "NodeAttributes": {
            "Latitude": 53.473,
            "Longitude": -2.113,
            "InitialPopulation": 11500,
            "Id": 1398948673,
            "FacilityName": "Audenshaw"
         }
      },
      {
         "NodeID": 1393246779,
         "NodeAttributes": {
            "Latitude": 51.287,
            "Longitude": -2.84,
            "InitialPopulation": 24980,
            "Id": 1393246779,
            "FacilityName": "Axbridge.RD"
         }
      },
      {
         "NodeID": 1391739390,
         "NodeAttributes": {
            "Latitude": 50.782,
            "Longitude": -3.03,
            "InitialPopulation": 10840,
            "Id": 1391739390,
            "FacilityName": "Axminster.RD"
         }
      },
      {
         "NodeID": 1409106554,
         "NodeAttributes": {
            "Latitude": 51.813,
            "Longitude": -0.818,
            "InitialPopulation": 19910,
            "Id": 1409106554,
            "FacilityName": "Aylesbury"
         }
      },
      {
         "NodeID": 1408320123,
         "NodeAttributes": {
            "Latitude": 51.823,
            "Longitude": -0.92,
            "InitialPopulation": 24900,
            "Id": 1408320123,
            "FacilityName": "Aylesbury.RD"
         }
      },
      {
         "NodeID": 1398227804,
         "NodeAttributes": {
            "Latitude": 53.698,
            "Longitude": -2.205,
            "InitialPopulation": 16880,
            "Id": 1398227804,
            "FacilityName": "Bacup"
         }
      },
      {
         "NodeID": 1410613828,
         "NodeAttributes": {
            "Latitude": 51.362,
            "Longitude": -0.63,
            "InitialPopulation": 12650,
            "Id": 1410613828,
            "FacilityName": "Bagshot.RD"
         }
      },
      {
         "NodeID": 1402225445,
         "NodeAttributes": {
            "Latitude": 53.24,
            "Longitude": -1.693,
            "InitialPopulation": 18970,
            "Id": 1402225445,
            "FacilityName": "Bakewell.RD"
         }
      },
      {
         "NodeID": 1405043352,
         "NodeAttributes": {
            "Latitude": 52.06,
            "Longitude": -1.337,
            "InitialPopulation": 17310,
            "Id": 1405043352,
            "FacilityName": "Banbury"
         }
      },
      {
         "NodeID": 1404781202,
         "NodeAttributes": {
            "Latitude": 52.015,
            "Longitude": -1.367,
            "InitialPopulation": 13560,
            "Id": 1404781202,
            "FacilityName": "Banbury.RD"
         }
      },
      {
         "NodeID": 1383023395,
         "NodeAttributes": {
            "Latitude": 53.222,
            "Longitude": -4.135,
            "InitialPopulation": 12630,
            "Id": 1383023395,
            "FacilityName": "Bangor"
         }
      },
      {
         "NodeID": 1414021695,
         "NodeAttributes": {
            "Latitude": 51.32,
            "Longitude": -0.2,
            "InitialPopulation": 27450,
            "Id": 1414021695,
            "FacilityName": "Banstead"
         }
      },
      {
         "NodeID": 1416184409,
         "NodeAttributes": {
            "Latitude": 51.54,
            "Longitude": 0.083,
            "InitialPopulation": 63350,
            "Id": 1416184409,
            "FacilityName": "Barking"
         }
      },
      {
         "NodeID": 1400718284,
         "NodeAttributes": {
            "Latitude": 54.633,
            "Longitude": -1.885,
            "InitialPopulation": 16100,
            "Id": 1400718284,
            "FacilityName": "Barnard.Castle.RD"
         }
      },
      {
         "NodeID": 1413694033,
         "NodeAttributes": {
            "Latitude": 51.473,
            "Longitude": -0.237,
            "InitialPopulation": 32990,
            "Id": 1413694033,
            "FacilityName": "Barnes"
         }
      },
      {
         "NodeID": 1413956198,
         "NodeAttributes": {
            "Latitude": 51.643,
            "Longitude": -0.202,
            "InitialPopulation": 21290,
            "Id": 1413956198,
            "FacilityName": "Barnet"
         }
      },
      {
         "NodeID": 1398293366,
         "NodeAttributes": {
            "Latitude": 53.913,
            "Longitude": -2.192,
            "InitialPopulation": 10430,
            "Id": 1398293366,
            "FacilityName": "Barnoldswick"
         }
      },
      {
         "NodeID": 1403929419,
         "NodeAttributes": {
            "Latitude": 53.553,
            "Longitude": -1.48,
            "InitialPopulation": 68260,
            "Id": 1403929419,
            "FacilityName": "Barnsley"
         }
      },
      {
         "NodeID": 1383744034,
         "NodeAttributes": {
            "Latitude": 51.082,
            "Longitude": -4.05,
            "InitialPopulation": 15110,
            "Id": 1383744034,
            "FacilityName": "Barnstaple"
         }
      },
      {
         "NodeID": 1383809575,
         "NodeAttributes": {
            "Latitude": 51.118,
            "Longitude": -4.037,
            "InitialPopulation": 23760,
            "Id": 1383809575,
            "FacilityName": "Barnstaple.RD"
         }
      },
      {
         "NodeID": 1390166926,
         "NodeAttributes": {
            "Latitude": 54.115,
            "Longitude": -3.232,
            "InitialPopulation": 66690,
            "Id": 1390166926,
            "FacilityName": "Barrow.in.Furness"
         }
      },
      {
         "NodeID": 1406878440,
         "NodeAttributes": {
            "Latitude": 52.733,
            "Longitude": -1.105,
            "InitialPopulation": 41030,
            "Id": 1406878440,
            "FacilityName": "Barrow.upon.Soar.RD"
         }
      },
      {
         "NodeID": 1389838921,
         "NodeAttributes": {
            "Latitude": 51.408,
            "Longitude": -3.273,
            "InitialPopulation": 36790,
            "Id": 1389838921,
            "FacilityName": "Barry"
         }
      },
      {
         "NodeID": 1406092047,
         "NodeAttributes": {
            "Latitude": 53.058,
            "Longitude": -1.202,
            "InitialPopulation": 43838,
            "Id": 1406092047,
            "FacilityName": "Basford.RD"
         }
      },
      {
         "NodeID": 1407009337,
         "NodeAttributes": {
            "Latitude": 51.267,
            "Longitude": -1.09,
            "InitialPopulation": 15990,
            "Id": 1407009337,
            "FacilityName": "Basingstoke"
         }
      },
      {
         "NodeID": 1406943797,
         "NodeAttributes": {
            "Latitude": 51.24,
            "Longitude": -1.092,
            "InitialPopulation": 14550,
            "Id": 1406943797,
            "FacilityName": "Basingstoke.RD"
         }
      },
      {
         "NodeID": 1396916806,
         "NodeAttributes": {
            "Latitude": 51.378,
            "Longitude": -2.367,
            "InitialPopulation": 72220,
            "Id": 1396916806,
            "FacilityName": "Bath"
         }
      },
      {
         "NodeID": 1396589124,
         "NodeAttributes": {
            "Latitude": 51.36,
            "Longitude": -2.41,
            "InitialPopulation": 22320,
            "Id": 1396589124,
            "FacilityName": "Bathavon.RD"
         }
      },
      {
         "NodeID": 1402749791,
         "NodeAttributes": {
            "Latitude": 53.717,
            "Longitude": -1.63,
            "InitialPopulation": 36250,
            "Id": 1402749791,
            "FacilityName": "Batley"
         }
      },
      {
         "NodeID": 1414414929,
         "NodeAttributes": {
            "Latitude": 51.472,
            "Longitude": -0.15,
            "InitialPopulation": 85380,
            "Id": 1414414929,
            "FacilityName": "Battersea"
         }
      },
      {
         "NodeID": 1419723284,
         "NodeAttributes": {
            "Latitude": 50.965,
            "Longitude": 0.527,
            "InitialPopulation": 24990,
            "Id": 1419723284,
            "FacilityName": "Battle.RD"
         }
      },
      {
         "NodeID": 1392001842,
         "NodeAttributes": {
            "Latitude": 53.343,
            "Longitude": -3.0,
            "InitialPopulation": 41970,
            "Id": 1392001842,
            "FacilityName": "Bebington"
         }
      },
      {
         "NodeID": 1415397961,
         "NodeAttributes": {
            "Latitude": 51.407,
            "Longitude": -0.023,
            "InitialPopulation": 55540,
            "Id": 1415397961,
            "FacilityName": "Beckenham"
         }
      },
      {
         "NodeID": 1414480452,
         "NodeAttributes": {
            "Latitude": 51.363,
            "Longitude": -0.14,
            "InitialPopulation": 26690,
            "Id": 1414480452,
            "FacilityName": "Beddlington.and.Wallington"
         }
      },
      {
         "NodeID": 1411924640,
         "NodeAttributes": {
            "Latitude": 52.133,
            "Longitude": -0.46,
            "InitialPopulation": 52670,
            "Id": 1411924640,
            "FacilityName": "Bedford"
         }
      },
      {
         "NodeID": 1411859112,
         "NodeAttributes": {
            "Latitude": 52.197,
            "Longitude": -0.472,
            "InitialPopulation": 25560,
            "Id": 1411859112,
            "FacilityName": "Bedford.RD"
         }
      },
      {
         "NodeID": 1403077640,
         "NodeAttributes": {
            "Latitude": 55.127,
            "Longitude": -1.585,
            "InitialPopulation": 25120,
            "Id": 1403077640,
            "FacilityName": "Bedlingtonshire"
         }
      },
      {
         "NodeID": 1390363244,
         "NodeAttributes": {
            "Latitude": 51.697,
            "Longitude": -3.208,
            "InitialPopulation": 28350,
            "Id": 1390363244,
            "FacilityName": "Bedwellty"
         }
      },
      {
         "NodeID": 1403929290,
         "NodeAttributes": {
            "Latitude": 52.475,
            "Longitude": -1.4780000000000002,
            "InitialPopulation": 22060,
            "Id": 1403929290,
            "FacilityName": "Bedworth"
         }
      },
      {
         "NodeID": 1405960959,
         "NodeAttributes": {
            "Latitude": 52.923,
            "Longitude": -1.22,
            "InitialPopulation": 42040,
            "Id": 1405960959,
            "FacilityName": "Beeston.and.Stapleford"
         }
      },
      {
         "NodeID": 1403994891,
         "NodeAttributes": {
            "Latitude": 53.023,
            "Longitude": -1.472,
            "InitialPopulation": 14000,
            "Id": 1403994891,
            "FacilityName": "Belper"
         }
      },
      {
         "NodeID": 1403732747,
         "NodeAttributes": {
            "Latitude": 53.023,
            "Longitude": -1.5019999999999998,
            "InitialPopulation": 26580,
            "Id": 1403732747,
            "FacilityName": "Belper.RD"
         }
      },
      {
         "NodeID": 1420051033,
         "NodeAttributes": {
            "Latitude": 51.54,
            "Longitude": 0.573,
            "InitialPopulation": 37110,
            "Id": 1420051033,
            "FacilityName": "Benfleet"
         }
      },
      {
         "NodeID": 1406550858,
         "NodeAttributes": {
            "Latitude": 53.543,
            "Longitude": -1.148,
            "InitialPopulation": 17700,
            "Id": 1406550858,
            "FacilityName": "Bentley.with.Arksey"
         }
      },
      {
         "NodeID": 1411072629,
         "NodeAttributes": {
            "Latitude": 51.767,
            "Longitude": -0.573,
            "InitialPopulation": 11530,
            "Id": 1411072629,
            "FacilityName": "Berkhamsted"
         }
      },
      {
         "NodeID": 1414939220,
         "NodeAttributes": {
            "Latitude": 51.49800000000001,
            "Longitude": -0.077,
            "InitialPopulation": 44800,
            "Id": 1414939220,
            "FacilityName": "Bermondsey"
         }
      },
      {
         "NodeID": 1399800916,
         "NodeAttributes": {
            "Latitude": 55.765,
            "Longitude": -2.008,
            "InitialPopulation": 10710,
            "Id": 1399800916,
            "FacilityName": "Berwick.upon.Tweed"
         }
      },
      {
         "NodeID": 1415070296,
         "NodeAttributes": {
            "Latitude": 51.525,
            "Longitude": -0.062,
            "InitialPopulation": 48280,
            "Id": 1415070296,
            "FacilityName": "Bethnal.Green"
         }
      },
      {
         "NodeID": 1412318063,
         "NodeAttributes": {
            "Latitude": 53.85,
            "Longitude": -0.412,
            "InitialPopulation": 13510,
            "Id": 1412318063,
            "FacilityName": "Beverley"
         }
      },
      {
         "NodeID": 1411728236,
         "NodeAttributes": {
            "Latitude": 53.828,
            "Longitude": -0.488,
            "InitialPopulation": 17590,
            "Id": 1411728236,
            "FacilityName": "Beverley.RD"
         }
      },
      {
         "NodeID": 1419198983,
         "NodeAttributes": {
            "Latitude": 50.85,
            "Longitude": 0.463,
            "InitialPopulation": 14310,
            "Id": 1419198983,
            "FacilityName": "Bexhill"
         }
      },
      {
         "NodeID": 1416381007,
         "NodeAttributes": {
            "Latitude": 51.458,
            "Longitude": 0.108,
            "InitialPopulation": 71130,
            "Id": 1416381007,
            "FacilityName": "Bexley"
         }
      },
      {
         "NodeID": 1398489878,
         "NodeAttributes": {
            "Latitude": 53.113,
            "Longitude": -2.173,
            "InitialPopulation": 10250,
            "Id": 1398489878,
            "FacilityName": "Biddulph"
         }
      },
      {
         "NodeID": 1382367771,
         "NodeAttributes": {
            "Latitude": 51.017,
            "Longitude": -4.218,
            "InitialPopulation": 10440,
            "Id": 1382367771,
            "FacilityName": "Bideford"
         }
      },
      {
         "NodeID": 1413104281,
         "NodeAttributes": {
            "Latitude": 52.06800000000001,
            "Longitude": -0.315,
            "InitialPopulation": 21900,
            "Id": 1413104281,
            "FacilityName": "Biggleswade.RD"
         }
      },
      {
         "NodeID": 1405502409,
         "NodeAttributes": {
            "Latitude": 54.603,
            "Longitude": -1.2819999999999998,
            "InitialPopulation": 20220,
            "Id": 1405502409,
            "FacilityName": "Billingham"
         }
      },
      {
         "NodeID": 1399210710,
         "NodeAttributes": {
            "Latitude": 52.575,
            "Longitude": -2.082,
            "InitialPopulation": 30620,
            "Id": 1399210710,
            "FacilityName": "Bilston"
         }
      },
      {
         "NodeID": 1407861504,
         "NodeAttributes": {
            "Latitude": 52.93,
            "Longitude": -0.982,
            "InitialPopulation": 16420,
            "Id": 1407861504,
            "FacilityName": "Bingham.RD"
         }
      },
      {
         "NodeID": 1401176943,
         "NodeAttributes": {
            "Latitude": 53.852,
            "Longitude": -1.827,
            "InitialPopulation": 20390,
            "Id": 1401176943,
            "FacilityName": "Bingley"
         }
      },
      {
         "NodeID": 1391608631,
         "NodeAttributes": {
            "Latitude": 53.38800000000001,
            "Longitude": -3.045,
            "InitialPopulation": 118770,
            "Id": 1391608631,
            "FacilityName": "Birkenhead"
         }
      },
      {
         "NodeID": 1400914635,
         "NodeAttributes": {
            "Latitude": 52.485,
            "Longitude": -1.86,
            "InitialPopulation": 993310,
            "Id": 1400914635,
            "FacilityName": "Birmingham"
         }
      },
      {
         "NodeID": 1402225615,
         "NodeAttributes": {
            "Latitude": 54.65,
            "Longitude": -1.6980000000000002,
            "InitialPopulation": 32990,
            "Id": 1402225615,
            "FacilityName": "Bishop.Auckland"
         }
      },
      {
         "NodeID": 1416905345,
         "NodeAttributes": {
            "Latitude": 51.872,
            "Longitude": 0.172,
            "InitialPopulation": 11250,
            "Id": 1416905345,
            "FacilityName": "Bishops.Stortford"
         }
      },
      {
         "NodeID": 1406157525,
         "NodeAttributes": {
            "Latitude": 52.572,
            "Longitude": -1.197,
            "InitialPopulation": 35520,
            "Id": 1406157525,
            "FacilityName": "Blaby.RD"
         }
      },
      {
         "NodeID": 1396065122,
         "NodeAttributes": {
            "Latitude": 53.742,
            "Longitude": -2.478,
            "InitialPopulation": 102630,
            "Id": 1396065122,
            "FacilityName": "Blackburn"
         }
      },
      {
         "NodeID": 1395737445,
         "NodeAttributes": {
            "Latitude": 53.77,
            "Longitude": -2.523,
            "InitialPopulation": 12240,
            "Id": 1395737445,
            "FacilityName": "Blackburn.RD"
         }
      },
      {
         "NodeID": 1391608683,
         "NodeAttributes": {
            "Latitude": 53.82,
            "Longitude": -3.042,
            "InitialPopulation": 146370,
            "Id": 1391608683,
            "FacilityName": "Blackpool"
         }
      },
      {
         "NodeID": 1405043485,
         "NodeAttributes": {
            "Latitude": 53.167,
            "Longitude": -1.335,
            "InitialPopulation": 41420,
            "Id": 1405043485,
            "FacilityName": "Blackwell.RD"
         }
      },
      {
         "NodeID": 1401963507,
         "NodeAttributes": {
            "Latitude": 54.957,
            "Longitude": -1.727,
            "InitialPopulation": 29050,
            "Id": 1401963507,
            "FacilityName": "Blaydon"
         }
      },
      {
         "NodeID": 1427784413,
         "NodeAttributes": {
            "Latitude": 52.63800000000001,
            "Longitude": 1.5530000000000002,
            "InitialPopulation": 27150,
            "Id": 1427784413,
            "FacilityName": "Blofield.and.Flegg.RD"
         }
      },
      {
         "NodeID": 1403601928,
         "NodeAttributes": {
            "Latitude": 55.127,
            "Longitude": -1.5219999999999998,
            "InitialPopulation": 30540,
            "Id": 1403601928,
            "FacilityName": "Blyth"
         }
      },
      {
         "NodeID": 1426997935,
         "NodeAttributes": {
            "Latitude": 52.255,
            "Longitude": 1.45,
            "InitialPopulation": 17970,
            "Id": 1426997935,
            "FacilityName": "Blyth.RD"
         }
      },
      {
         "NodeID": 1410286079,
         "NodeAttributes": {
            "Latitude": 50.787,
            "Longitude": -0.675,
            "InitialPopulation": 21360,
            "Id": 1410286079,
            "FacilityName": "Bognor.Regis"
         }
      },
      {
         "NodeID": 1404060658,
         "NodeAttributes": {
            "Latitude": 54.947,
            "Longitude": -1.462,
            "InitialPopulation": 14650,
            "Id": 1404060658,
            "FacilityName": "Boldon"
         }
      },
      {
         "NodeID": 1396458317,
         "NodeAttributes": {
            "Latitude": 53.572,
            "Longitude": -2.432,
            "InitialPopulation": 153940,
            "Id": 1396458317,
            "FacilityName": "Bolton"
         }
      },
      {
         "NodeID": 1391936318,
         "NodeAttributes": {
            "Latitude": 53.44300000000001,
            "Longitude": -3.002,
            "InitialPopulation": 55820,
            "Id": 1391936318,
            "FacilityName": "Bootle"
         }
      },
      {
         "NodeID": 1393247221,
         "NodeAttributes": {
            "Latitude": 54.972,
            "Longitude": -2.837,
            "InitialPopulation": 27250,
            "Id": 1393247221,
            "FacilityName": "Border.RD"
         }
      },
      {
         "NodeID": 1415463686,
         "NodeAttributes": {
            "Latitude": 52.98,
            "Longitude": -0.012,
            "InitialPopulation": 21350,
            "Id": 1415463686,
            "FacilityName": "Boston"
         }
      },
      {
         "NodeID": 1415201539,
         "NodeAttributes": {
            "Latitude": 52.955,
            "Longitude": -0.043,
            "InitialPopulation": 18980,
            "Id": 1415201539,
            "FacilityName": "Boston.RD"
         }
      },
      {
         "NodeID": 1400783351,
         "NodeAttributes": {
            "Latitude": 50.722,
            "Longitude": -1.88,
            "InitialPopulation": 123210,
            "Id": 1400783351,
            "FacilityName": "Bournemouth"
         }
      },
      {
         "NodeID": 1406681678,
         "NodeAttributes": {
            "Latitude": 51.448,
            "Longitude": -1.13,
            "InitialPopulation": 19300,
            "Id": 1406681678,
            "FacilityName": "Bradfield.RD"
         }
      },
      {
         "NodeID": 1398293059,
         "NodeAttributes": {
            "Latitude": 51.352,
            "Longitude": -2.195,
            "InitialPopulation": 10090,
            "Id": 1398293059,
            "FacilityName": "Bradford.and.Melksham.RD"
         }
      },
      {
         "NodeID": 1401832295,
         "NodeAttributes": {
            "Latitude": 53.788,
            "Longitude": -1.75,
            "InitialPopulation": 261890,
            "Id": 1401832295,
            "FacilityName": "Bradford"
         }
      },
      {
         "NodeID": 1419985538,
         "NodeAttributes": {
            "Latitude": 51.882,
            "Longitude": 0.563,
            "InitialPopulation": 15400,
            "Id": 1419985538,
            "FacilityName": "Braintree.and.Bocking"
         }
      },
      {
         "NodeID": 1420313215,
         "NodeAttributes": {
            "Latitude": 51.853,
            "Longitude": 0.605,
            "InitialPopulation": 17580,
            "Id": 1420313215,
            "FacilityName": "Braintree.RD"
         }
      },
      {
         "NodeID": 1402684379,
         "NodeAttributes": {
            "Latitude": 54.75,
            "Longitude": -1.635,
            "InitialPopulation": 18110,
            "Id": 1402684379,
            "FacilityName": "Brandon.and.Byshottles"
         }
      },
      {
         "NodeID": 1416118918,
         "NodeAttributes": {
            "Latitude": 51.91,
            "Longitude": 0.07200000000000001,
            "InitialPopulation": 10240,
            "Id": 1416118918,
            "FacilityName": "Braughing.RD"
         }
      },
      {
         "NodeID": 1398948667,
         "NodeAttributes": {
            "Latitude": 53.42,
            "Longitude": -2.113,
            "InitialPopulation": 15910,
            "Id": 1398948667,
            "FacilityName": "Bredbury.and.Romiley"
         }
      },
      {
         "NodeID": 1413235282,
         "NodeAttributes": {
            "Latitude": 51.483,
            "Longitude": -0.293,
            "InitialPopulation": 48880,
            "Id": 1413235282,
            "FacilityName": "Brentford.and.Chiswick"
         }
      },
      {
         "NodeID": 1418084963,
         "NodeAttributes": {
            "Latitude": 51.617,
            "Longitude": 0.318,
            "InitialPopulation": 26200,
            "Id": 1418084963,
            "FacilityName": "Brentwood"
         }
      },
      {
         "NodeID": 1424441911,
         "NodeAttributes": {
            "Latitude": 51.257,
            "Longitude": 1.132,
            "InitialPopulation": 17730,
            "Id": 1424441911,
            "FacilityName": "Bridge.Blean.RD"
         }
      },
      {
         "NodeID": 1387414102,
         "NodeAttributes": {
            "Latitude": 51.512,
            "Longitude": -3.5780000000000003,
            "InitialPopulation": 11450,
            "Id": 1387414102,
            "FacilityName": "Bridgend"
         }
      },
      {
         "NodeID": 1396392652,
         "NodeAttributes": {
            "Latitude": 52.493,
            "Longitude": -2.435,
            "InitialPopulation": 13050,
            "Id": 1396392652,
            "FacilityName": "Bridgnorth.RD"
         }
      },
      {
         "NodeID": 1392001576,
         "NodeAttributes": {
            "Latitude": 51.132,
            "Longitude": -2.9930000000000003,
            "InitialPopulation": 20040,
            "Id": 1392001576,
            "FacilityName": "Bridgwater"
         }
      },
      {
         "NodeID": 1392132648,
         "NodeAttributes": {
            "Latitude": 51.132,
            "Longitude": -2.98,
            "InitialPopulation": 19410,
            "Id": 1392132648,
            "FacilityName": "Bridgwater.RD"
         }
      },
      {
         "NodeID": 1414087563,
         "NodeAttributes": {
            "Latitude": 54.09,
            "Longitude": -0.188,
            "InitialPopulation": 18370,
            "Id": 1414087563,
            "FacilityName": "Bridlington"
         }
      },
      {
         "NodeID": 1398948554,
         "NodeAttributes": {
            "Latitude": 52.475,
            "Longitude": -2.112,
            "InitialPopulation": 44500,
            "Id": 1398948554,
            "FacilityName": "Brierley"
         }
      },
      {
         "NodeID": 1401570141,
         "NodeAttributes": {
            "Latitude": 53.707,
            "Longitude": -1.7819999999999998,
            "InitialPopulation": 27840,
            "Id": 1401570141,
            "FacilityName": "Brighouse"
         }
      },
      {
         "NodeID": 1414545926,
         "NodeAttributes": {
            "Latitude": 50.842,
            "Longitude": -0.133,
            "InitialPopulation": 122350,
            "Id": 1414545926,
            "FacilityName": "Brighton"
         }
      },
      {
         "NodeID": 1395343954,
         "NodeAttributes": {
            "Latitude": 51.477,
            "Longitude": -2.57,
            "InitialPopulation": 405530,
            "Id": 1395343954,
            "FacilityName": "Bristol"
         }
      },
      {
         "NodeID": 1408320189,
         "NodeAttributes": {
            "Latitude": 52.372,
            "Longitude": -0.922,
            "InitialPopulation": 16060,
            "Id": 1408320189,
            "FacilityName": "Brixworth.RD"
         }
      },
      {
         "NodeID": 1415725641,
         "NodeAttributes": {
            "Latitude": 51.407,
            "Longitude": 0.02,
            "InitialPopulation": 49730,
            "Id": 1415725641,
            "FacilityName": "Bromley"
         }
      },
      {
         "NodeID": 1399276216,
         "NodeAttributes": {
            "Latitude": 52.332,
            "Longitude": -2.067,
            "InitialPopulation": 25520,
            "Id": 1399276216,
            "FacilityName": "Bromsgrove"
         }
      },
      {
         "NodeID": 1399800507,
         "NodeAttributes": {
            "Latitude": 52.35,
            "Longitude": -2.008,
            "InitialPopulation": 24100,
            "Id": 1399800507,
            "FacilityName": "Bromsgrove.RD"
         }
      },
      {
         "NodeID": 1400324830,
         "NodeAttributes": {
            "Latitude": 52.647,
            "Longitude": -1.935,
            "InitialPopulation": 20320,
            "Id": 1400324830,
            "FacilityName": "Brownhills"
         }
      },
      {
         "NodeID": 1407140460,
         "NodeAttributes": {
            "Latitude": 51.698,
            "Longitude": -1.067,
            "InitialPopulation": 27100,
            "Id": 1407140460,
            "FacilityName": "Bullingdon.RD"
         }
      },
      {
         "NodeID": 1397834599,
         "NodeAttributes": {
            "Latitude": 53.788,
            "Longitude": -2.252,
            "InitialPopulation": 78380,
            "Id": 1397834599,
            "FacilityName": "Burnley"
         }
      },
      {
         "NodeID": 1397637992,
         "NodeAttributes": {
            "Latitude": 53.797,
            "Longitude": -2.282,
            "InitialPopulation": 16400,
            "Id": 1397637992,
            "FacilityName": "Burnley.RD"
         }
      },
      {
         "NodeID": 1402684144,
         "NodeAttributes": {
            "Latitude": 52.798,
            "Longitude": -1.6369999999999998,
            "InitialPopulation": 45730,
            "Id": 1402684144,
            "FacilityName": "Burton.upon.Trent"
         }
      },
      {
         "NodeID": 1397506895,
         "NodeAttributes": {
            "Latitude": 53.59,
            "Longitude": -2.295,
            "InitialPopulation": 52160,
            "Id": 1397506895,
            "FacilityName": "Bury"
         }
      },
      {
         "NodeID": 1421230766,
         "NodeAttributes": {
            "Latitude": 52.247,
            "Longitude": 0.7170000000000001,
            "InitialPopulation": 17780,
            "Id": 1421230766,
            "FacilityName": "Bury.St.Edmunds"
         }
      },
      {
         "NodeID": 1412711014,
         "NodeAttributes": {
            "Latitude": 51.647,
            "Longitude": -0.36,
            "InitialPopulation": 12950,
            "Id": 1412711014,
            "FacilityName": "Bushey"
         }
      },
      {
         "NodeID": 1400587047,
         "NodeAttributes": {
            "Latitude": 53.258,
            "Longitude": -1.903,
            "InitialPopulation": 18350,
            "Id": 1400587047,
            "FacilityName": "Buxton"
         }
      },
      {
         "NodeID": 1390232157,
         "NodeAttributes": {
            "Latitude": 51.57,
            "Longitude": -3.22,
            "InitialPopulation": 32540,
            "Id": 1390232157,
            "FacilityName": "Caerphilly"
         }
      },
      {
         "NodeID": 1413038911,
         "NodeAttributes": {
            "Latitude": 53.453,
            "Longitude": -0.322,
            "InitialPopulation": 12100,
            "Id": 1413038911,
            "FacilityName": "Caistor.RD"
         }
      },
      {
         "NodeID": 1399079506,
         "NodeAttributes": {
            "Latitude": 51.478,
            "Longitude": -2.095,
            "InitialPopulation": 27650,
            "Id": 1399079506,
            "FacilityName": "Calne.and.Chippenham.RD"
         }
      },
      {
         "NodeID": 1414939218,
         "NodeAttributes": {
            "Latitude": 51.48,
            "Longitude": -0.078,
            "InitialPopulation": 129880,
            "Id": 1414939218,
            "FacilityName": "Camberwell"
         }
      },
      {
         "NodeID": 1373847995,
         "NodeAttributes": {
            "Latitude": 50.217,
            "Longitude": -5.3020000000000005,
            "InitialPopulation": 34670,
            "Id": 1373847995,
            "FacilityName": "Camborne.Redruth"
         }
      },
      {
         "NodeID": 1416708777,
         "NodeAttributes": {
            "Latitude": 52.205,
            "Longitude": 0.14300000000000002,
            "InitialPopulation": 77660,
            "Id": 1416708777,
            "FacilityName": "Cambridge"
         }
      },
      {
         "NodeID": 1399669476,
         "NodeAttributes": {
            "Latitude": 52.692,
            "Longitude": -2.023,
            "InitialPopulation": 38070,
            "Id": 1399669476,
            "FacilityName": "Cannock"
         }
      },
      {
         "NodeID": 1398686437,
         "NodeAttributes": {
            "Latitude": 52.7,
            "Longitude": -2.142,
            "InitialPopulation": 21900,
            "Id": 1398686437,
            "FacilityName": "Cannock.RD"
         }
      },
      {
         "NodeID": 1424048698,
         "NodeAttributes": {
            "Latitude": 51.275,
            "Longitude": 1.075,
            "InitialPopulation": 18580,
            "Id": 1424048698,
            "FacilityName": "Canterbury"
         }
      },
      {
         "NodeID": 1390625362,
         "NodeAttributes": {
            "Latitude": 51.482,
            "Longitude": -3.175,
            "InitialPopulation": 215130,
            "Id": 1390625362,
            "FacilityName": "Cardiff"
         }
      },
      {
         "NodeID": 1389576787,
         "NodeAttributes": {
            "Latitude": 51.488,
            "Longitude": -3.305,
            "InitialPopulation": 35070,
            "Id": 1389576787,
            "FacilityName": "Cardiff.RD"
         }
      },
      {
         "NodeID": 1392395243,
         "NodeAttributes": {
            "Latitude": 54.89,
            "Longitude": -2.943,
            "InitialPopulation": 60250,
            "Id": 1392395243,
            "FacilityName": "Carlisle"
         }
      },
      {
         "NodeID": 1406944005,
         "NodeAttributes": {
            "Latitude": 52.967,
            "Longitude": -1.1,
            "InitialPopulation": 30150,
            "Id": 1406944005,
            "FacilityName": "Carlton"
         }
      },
      {
         "NodeID": 1381712512,
         "NodeAttributes": {
            "Latitude": 51.86,
            "Longitude": -4.303,
            "InitialPopulation": 10280,
            "Id": 1381712512,
            "FacilityName": "Carmarthen"
         }
      },
      {
         "NodeID": 1381057151,
         "NodeAttributes": {
            "Latitude": 51.858,
            "Longitude": -4.39,
            "InitialPopulation": 28480,
            "Id": 1381057151,
            "FacilityName": "Carmarthen.RD"
         }
      },
      {
         "NodeID": 1414218308,
         "NodeAttributes": {
            "Latitude": 51.365,
            "Longitude": -0.168,
            "InitialPopulation": 52300,
            "Id": 1414218308,
            "FacilityName": "Carshalton"
         }
      },
      {
         "NodeID": 1401504769,
         "NodeAttributes": {
            "Latitude": 55.073,
            "Longitude": -1.79,
            "InitialPopulation": 12550,
            "Id": 1401504769,
            "FacilityName": "Castle.Ward.RD"
         }
      },
      {
         "NodeID": 1404912479,
         "NodeAttributes": {
            "Latitude": 53.723,
            "Longitude": -1.357,
            "InitialPopulation": 38840,
            "Id": 1404912479,
            "FacilityName": "Castleford"
         }
      },
      {
         "NodeID": 1414873658,
         "NodeAttributes": {
            "Latitude": 51.282,
            "Longitude": -0.087,
            "InitialPopulation": 22440,
            "Id": 1414873658,
            "FacilityName": "Caterham.and.Warlingham"
         }
      },
      {
         "NodeID": 1398686538,
         "NodeAttributes": {
            "Latitude": 53.545,
            "Longitude": -2.143,
            "InitialPopulation": 29500,
            "Id": 1398686538,
            "FacilityName": "Chadderton"
         }
      },
      {
         "NodeID": 1415528973,
         "NodeAttributes": {
            "Latitude": 50.903,
            "Longitude": -0.002,
            "InitialPopulation": 16630,
            "Id": 1415528973,
            "FacilityName": "Chailey.RD"
         }
      },
      {
         "NodeID": 1412514321,
         "NodeAttributes": {
            "Latitude": 50.937,
            "Longitude": -0.385,
            "InitialPopulation": 17400,
            "Id": 1412514321,
            "FacilityName": "Chanctonbury.RD"
         }
      },
      {
         "NodeID": 1400849204,
         "NodeAttributes": {
            "Latitude": 53.365,
            "Longitude": -1.873,
            "InitialPopulation": 18060,
            "Id": 1400849204,
            "FacilityName": "Chapel.en.le.Firth.RD"
         }
      },
      {
         "NodeID": 1392722444,
         "NodeAttributes": {
            "Latitude": 50.898,
            "Longitude": -2.903,
            "InitialPopulation": 12600,
            "Id": 1392722444,
            "FacilityName": "Chard.RD"
         }
      },
      {
         "NodeID": 1419788868,
         "NodeAttributes": {
            "Latitude": 51.36,
            "Longitude": 0.535,
            "InitialPopulation": 35180,
            "Id": 1419788868,
            "FacilityName": "Chatham"
         }
      },
      {
         "NodeID": 1398227768,
         "NodeAttributes": {
            "Latitude": 53.393,
            "Longitude": -2.2030000000000003,
            "InitialPopulation": 28770,
            "Id": 1398227768,
            "FacilityName": "Cheadle.and.Gatley"
         }
      },
      {
         "NodeID": 1400128268,
         "NodeAttributes": {
            "Latitude": 53.025,
            "Longitude": -1.963,
            "InitialPopulation": 31170,
            "Id": 1400128268,
            "FacilityName": "Cheadle.RD"
         }
      },
      {
         "NodeID": 1419264624,
         "NodeAttributes": {
            "Latitude": 51.73,
            "Longitude": 0.468,
            "InitialPopulation": 33020,
            "Id": 1419264624,
            "FacilityName": "Chelmsford"
         }
      },
      {
         "NodeID": 1419461231,
         "NodeAttributes": {
            "Latitude": 51.722,
            "Longitude": 0.4970000000000001,
            "InitialPopulation": 33650,
            "Id": 1419461231,
            "FacilityName": "Chelmsford.RD"
         }
      },
      {
         "NodeID": 1414283858,
         "NodeAttributes": {
            "Latitude": 51.482,
            "Longitude": -0.165,
            "InitialPopulation": 30990,
            "Id": 1414283858,
            "FacilityName": "Chelsea"
         }
      },
      {
         "NodeID": 1399210629,
         "NodeAttributes": {
            "Latitude": 51.9,
            "Longitude": -2.08,
            "InitialPopulation": 60810,
            "Id": 1399210629,
            "FacilityName": "Cheltenham"
         }
      },
      {
         "NodeID": 1399669388,
         "NodeAttributes": {
            "Latitude": 51.963,
            "Longitude": -2.023,
            "InitialPopulation": 20770,
            "Id": 1399669388,
            "FacilityName": "Cheltenham.RD"
         }
      },
      {
         "NodeID": 1411662407,
         "NodeAttributes": {
            "Latitude": 51.387,
            "Longitude": -0.498,
            "InitialPopulation": 28500,
            "Id": 1411662407,
            "FacilityName": "Chertsey"
         }
      },
      {
         "NodeID": 1410810477,
         "NodeAttributes": {
            "Latitude": 51.703,
            "Longitude": -0.605,
            "InitialPopulation": 11030,
            "Id": 1410810477,
            "FacilityName": "Chesham"
         }
      },
      {
         "NodeID": 1415266925,
         "NodeAttributes": {
            "Latitude": 51.705,
            "Longitude": -0.04,
            "InitialPopulation": 18700,
            "Id": 1415266925,
            "FacilityName": "Cheshunt"
         }
      },
      {
         "NodeID": 1392788256,
         "NodeAttributes": {
            "Latitude": 53.192,
            "Longitude": -2.892,
            "InitialPopulation": 43880,
            "Id": 1392788256,
            "FacilityName": "Chester"
         }
      },
      {
         "NodeID": 1403208679,
         "NodeAttributes": {
            "Latitude": 54.857,
            "Longitude": -1.5719999999999998,
            "InitialPopulation": 16680,
            "Id": 1403208679,
            "FacilityName": "Chester.le.Street"
         }
      },
      {
         "NodeID": 1402946538,
         "NodeAttributes": {
            "Latitude": 54.875,
            "Longitude": -1.6030000000000002,
            "InitialPopulation": 38780,
            "Id": 1402946538,
            "FacilityName": "Chester.le.Street.RD"
         }
      },
      {
         "NodeID": 1393050401,
         "NodeAttributes": {
            "Latitude": 53.202,
            "Longitude": -2.862,
            "InitialPopulation": 18440,
            "Id": 1393050401,
            "FacilityName": "Chester.RD"
         }
      },
      {
         "NodeID": 1404388133,
         "NodeAttributes": {
            "Latitude": 53.238,
            "Longitude": -1.423,
            "InitialPopulation": 63790,
            "Id": 1404388133,
            "FacilityName": "Chesterfield"
         }
      },
      {
         "NodeID": 1404125985,
         "NodeAttributes": {
            "Latitude": 53.203,
            "Longitude": -1.455,
            "InitialPopulation": 70150,
            "Id": 1404125985,
            "FacilityName": "Chesterfield.RD"
         }
      },
      {
         "NodeID": 1416250030,
         "NodeAttributes": {
            "Latitude": 52.242,
            "Longitude": 0.087,
            "InitialPopulation": 33600,
            "Id": 1416250030,
            "FacilityName": "Chesterton.RD"
         }
      },
      {
         "NodeID": 1409499652,
         "NodeAttributes": {
            "Latitude": 50.833,
            "Longitude": -0.772,
            "InitialPopulation": 15880,
            "Id": 1409499652,
            "FacilityName": "Chichester"
         }
      },
      {
         "NodeID": 1409499657,
         "NodeAttributes": {
            "Latitude": 50.868,
            "Longitude": -0.772,
            "InitialPopulation": 33290,
            "Id": 1409499657,
            "FacilityName": "Chichester.RD"
         }
      },
      {
         "NodeID": 1416118883,
         "NodeAttributes": {
            "Latitude": 51.622,
            "Longitude": 0.07200000000000001,
            "InitialPopulation": 24820,
            "Id": 1416118883,
            "FacilityName": "Chigwell"
         }
      },
      {
         "NodeID": 1415660132,
         "NodeAttributes": {
            "Latitude": 51.632,
            "Longitude": 0.015,
            "InitialPopulation": 36840,
            "Id": 1415660132,
            "FacilityName": "Chingford"
         }
      },
      {
         "NodeID": 1398882896,
         "NodeAttributes": {
            "Latitude": 51.46,
            "Longitude": -2.123,
            "InitialPopulation": 12520,
            "Id": 1398882896,
            "FacilityName": "Chippenham"
         }
      },
      {
         "NodeID": 1403863683,
         "NodeAttributes": {
            "Latitude": 51.89,
            "Longitude": -1.485,
            "InitialPopulation": 14830,
            "Id": 1403863683,
            "FacilityName": "Chipping.Norton.RD"
         }
      },
      {
         "NodeID": 1416184394,
         "NodeAttributes": {
            "Latitude": 51.415,
            "Longitude": 0.077,
            "InitialPopulation": 57470,
            "Id": 1416184394,
            "FacilityName": "Chislehurst.and.Sidcup"
         }
      },
      {
         "NodeID": 1404781399,
         "NodeAttributes": {
            "Latitude": 53.652,
            "Longitude": -1.372,
            "InitialPopulation": 29090,
            "Id": 1404781399,
            "FacilityName": "Chorley"
         }
      },
      {
         "NodeID": 1394557783,
         "NodeAttributes": {
            "Latitude": 53.652,
            "Longitude": -2.673,
            "InitialPopulation": 24580,
            "Id": 1394557783,
            "FacilityName": "Chorley.RD"
         }
      },
      {
         "NodeID": 1401569784,
         "NodeAttributes": {
            "Latitude": 50.732,
            "Longitude": -1.7819999999999998,
            "InitialPopulation": 14810,
            "Id": 1401569784,
            "FacilityName": "Christchurch"
         }
      },
      {
         "NodeID": 1400128110,
         "NodeAttributes": {
            "Latitude": 51.712,
            "Longitude": -1.965,
            "InitialPopulation": 11600,
            "Id": 1400128110,
            "FacilityName": "Cirencester"
         }
      },
      {
         "NodeID": 1400259183,
         "NodeAttributes": {
            "Latitude": 51.72,
            "Longitude": -1.95,
            "InitialPopulation": 12880,
            "Id": 1400259183,
            "FacilityName": "Cirencester.RD"
         }
      },
      {
         "NodeID": 1424638584,
         "NodeAttributes": {
            "Latitude": 51.795,
            "Longitude": 1.153,
            "InitialPopulation": 11340,
            "Id": 1424638584,
            "FacilityName": "Clacton"
         }
      },
      {
         "NodeID": 1415332683,
         "NodeAttributes": {
            "Latitude": 53.557,
            "Longitude": -0.03,
            "InitialPopulation": 24470,
            "Id": 1415332683,
            "FacilityName": "Cleethorpes"
         }
      },
      {
         "NodeID": 1396786033,
         "NodeAttributes": {
            "Latitude": 53.868,
            "Longitude": -2.388,
            "InitialPopulation": 11060,
            "Id": 1396786033,
            "FacilityName": "Clithertoe"
         }
      },
      {
         "NodeID": 1405698857,
         "NodeAttributes": {
            "Latitude": 53.273,
            "Longitude": -1.258,
            "InitialPopulation": 17590,
            "Id": 1405698857,
            "FacilityName": "Clowne.RD"
         }
      },
      {
         "NodeID": 1395278400,
         "NodeAttributes": {
            "Latitude": 51.333,
            "Longitude": -2.582,
            "InitialPopulation": 17400,
            "Id": 1395278400,
            "FacilityName": "Clutton.RD"
         }
      },
      {
         "NodeID": 1404781287,
         "NodeAttributes": {
            "Latitude": 52.717,
            "Longitude": -1.372,
            "InitialPopulation": 23850,
            "Id": 1404781287,
            "FacilityName": "Coalville"
         }
      },
      {
         "NodeID": 1389642699,
         "NodeAttributes": {
            "Latitude": 54.617,
            "Longitude": -3.293,
            "InitialPopulation": 18170,
            "Id": 1389642699,
            "FacilityName": "Cockermouth.RD"
         }
      },
      {
         "NodeID": 1422606980,
         "NodeAttributes": {
            "Latitude": 51.892,
            "Longitude": 0.898,
            "InitialPopulation": 44480,
            "Id": 1422606980,
            "FacilityName": "Colchester"
         }
      },
      {
         "NodeID": 1398555504,
         "NodeAttributes": {
            "Latitude": 53.86,
            "Longitude": -2.16,
            "InitialPopulation": 19410,
            "Id": 1398555504,
            "FacilityName": "Colne"
         }
      },
      {
         "NodeID": 1400849235,
         "NodeAttributes": {
            "Latitude": 53.617,
            "Longitude": -1.872,
            "InitialPopulation": 20190,
            "Id": 1400849235,
            "FacilityName": "Colne.Valley"
         }
      },
      {
         "NodeID": 1386431275,
         "NodeAttributes": {
            "Latitude": 53.29,
            "Longitude": -3.703,
            "InitialPopulation": 24720,
            "Id": 1386431275,
            "FacilityName": "Colwyn.Bay"
         }
      },
      {
         "NodeID": 1398227741,
         "NodeAttributes": {
            "Latitude": 53.168,
            "Longitude": -2.2030000000000003,
            "InitialPopulation": 13950,
            "Id": 1398227741,
            "FacilityName": "Congleton"
         }
      },
      {
         "NodeID": 1397506845,
         "NodeAttributes": {
            "Latitude": 53.168,
            "Longitude": -2.292,
            "InitialPopulation": 11940,
            "Id": 1397506845,
            "FacilityName": "Congleton.RD"
         }
      },
      {
         "NodeID": 1405961026,
         "NodeAttributes": {
            "Latitude": 53.48,
            "Longitude": -1.225,
            "InitialPopulation": 15380,
            "Id": 1405961026,
            "FacilityName": "Conisborough"
         }
      },
      {
         "NodeID": 1400980455,
         "NodeAttributes": {
            "Latitude": 54.858,
            "Longitude": -1.853,
            "InitialPopulation": 35050,
            "Id": 1400980455,
            "FacilityName": "Consett"
         }
      },
      {
         "NodeID": 1385382698,
         "NodeAttributes": {
            "Latitude": 53.28,
            "Longitude": -3.838,
            "InitialPopulation": 10410,
            "Id": 1385382698,
            "FacilityName": "Conway"
         }
      },
      {
         "NodeID": 1409761877,
         "NodeAttributes": {
            "Latitude": 51.507,
            "Longitude": -0.74,
            "InitialPopulation": 13960,
            "Id": 1409761877,
            "FacilityName": "Cookham.RD"
         }
      },
      {
         "NodeID": 1410089676,
         "NodeAttributes": {
            "Latitude": 52.495,
            "Longitude": -0.6970000000000001,
            "InitialPopulation": 11080,
            "Id": 1410089676,
            "FacilityName": "Corby"
         }
      },
      {
         "NodeID": 1399210706,
         "NodeAttributes": {
            "Latitude": 52.548,
            "Longitude": -2.082,
            "InitialPopulation": 30460,
            "Id": 1399210706,
            "FacilityName": "Coseley"
         }
      },
      {
         "NodeID": 1414545982,
         "NodeAttributes": {
            "Latitude": 51.31,
            "Longitude": -0.128,
            "InitialPopulation": 50240,
            "Id": 1414545982,
            "FacilityName": "Coulsdon.and.Purley"
         }
      },
      {
         "NodeID": 1403732673,
         "NodeAttributes": {
            "Latitude": 52.403,
            "Longitude": -1.508,
            "InitialPopulation": 222210,
            "Id": 1403732673,
            "FacilityName": "Coventry"
         }
      },
      {
         "NodeID": 1388200530,
         "NodeAttributes": {
            "Latitude": 51.478,
            "Longitude": -3.477,
            "InitialPopulation": 12440,
            "Id": 1388200530,
            "FacilityName": "Cowbridge.RD"
         }
      },
      {
         "NodeID": 1405370875,
         "NodeAttributes": {
            "Latitude": 50.757,
            "Longitude": -1.298,
            "InitialPopulation": 14350,
            "Id": 1405370875,
            "FacilityName": "Cowes"
         }
      },
      {
         "NodeID": 1419788837,
         "NodeAttributes": {
            "Latitude": 51.1,
            "Longitude": 0.535,
            "InitialPopulation": 13290,
            "Id": 1419788837,
            "FacilityName": "Cranbrook.RD"
         }
      },
      {
         "NodeID": 1416970830,
         "NodeAttributes": {
            "Latitude": 51.448,
            "Longitude": 0.18,
            "InitialPopulation": 21910,
            "Id": 1416970830,
            "FacilityName": "Crayford"
         }
      },
      {
         "NodeID": 1386299905,
         "NodeAttributes": {
            "Latitude": 50.808,
            "Longitude": -3.725,
            "InitialPopulation": 10260,
            "Id": 1386299905,
            "FacilityName": "Crediton.RD"
         }
      },
      {
         "NodeID": 1396327188,
         "NodeAttributes": {
            "Latitude": 53.095,
            "Longitude": -2.442,
            "InitialPopulation": 48250,
            "Id": 1396327188,
            "FacilityName": "Crewe"
         }
      },
      {
         "NodeID": 1400783454,
         "NodeAttributes": {
            "Latitude": 51.577,
            "Longitude": -1.878,
            "InitialPopulation": 13870,
            "Id": 1400783454,
            "FacilityName": "Crickdale.and.Wootton.Bassett.RD"
         }
      },
      {
         "NodeID": 1399210830,
         "NodeAttributes": {
            "Latitude": 53.582,
            "Longitude": -2.083,
            "InitialPopulation": 11850,
            "Id": 1399210830,
            "FacilityName": "Crompton"
         }
      },
      {
         "NodeID": 1401832406,
         "NodeAttributes": {
            "Latitude": 54.713,
            "Longitude": -1.745,
            "InitialPopulation": 26680,
            "Id": 1401832406,
            "FacilityName": "Crook.and.Willington"
         }
      },
      {
         "NodeID": 1391739714,
         "NodeAttributes": {
            "Latitude": 53.478,
            "Longitude": -3.033,
            "InitialPopulation": 52800,
            "Id": 1391739714,
            "FacilityName": "Crosby"
         }
      },
      {
         "NodeID": 1414939204,
         "NodeAttributes": {
            "Latitude": 51.363,
            "Longitude": -0.083,
            "InitialPopulation": 190130,
            "Id": 1414939204,
            "FacilityName": "Croydon"
         }
      },
      {
         "NodeID": 1414480409,
         "NodeAttributes": {
            "Latitude": 51.005,
            "Longitude": -0.14,
            "InitialPopulation": 14500,
            "Id": 1414480409,
            "FacilityName": "Cuckfield"
         }
      },
      {
         "NodeID": 1414480411,
         "NodeAttributes": {
            "Latitude": 51.022,
            "Longitude": -0.14,
            "InitialPopulation": 26290,
            "Id": 1414480411,
            "FacilityName": "Cuckfield.RD"
         }
      },
      {
         "NodeID": 1391805031,
         "NodeAttributes": {
            "Latitude": 51.653,
            "Longitude": -3.02,
            "InitialPopulation": 11610,
            "Id": 1391805031,
            "FacilityName": "Cwmbran"
         }
      },
      {
         "NodeID": 1416643161,
         "NodeAttributes": {
            "Latitude": 51.54,
            "Longitude": 0.14,
            "InitialPopulation": 91770,
            "Id": 1416643161,
            "FacilityName": "Dagenham"
         }
      },
      {
         "NodeID": 1390625684,
         "NodeAttributes": {
            "Latitude": 54.16,
            "Longitude": -3.172,
            "InitialPopulation": 10610,
            "Id": 1390625684,
            "FacilityName": "Dalton.in.Furness"
         }
      },
      {
         "NodeID": 1399538390,
         "NodeAttributes": {
            "Latitude": 52.575,
            "Longitude": -2.0380000000000003,
            "InitialPopulation": 20330,
            "Id": 1399538390,
            "FacilityName": "Darlaston"
         }
      },
      {
         "NodeID": 1403274176,
         "NodeAttributes": {
            "Latitude": 54.525,
            "Longitude": -1.56,
            "InitialPopulation": 77640,
            "Id": 1403274176,
            "FacilityName": "Darlington"
         }
      },
      {
         "NodeID": 1417101901,
         "NodeAttributes": {
            "Latitude": 51.44,
            "Longitude": 0.193,
            "InitialPopulation": 33910,
            "Id": 1417101901,
            "FacilityName": "Dartford"
         }
      },
      {
         "NodeID": 1417495111,
         "NodeAttributes": {
            "Latitude": 51.385,
            "Longitude": 0.248,
            "InitialPopulation": 31210,
            "Id": 1417495111,
            "FacilityName": "Dartford.RD"
         }
      },
      {
         "NodeID": 1403667279,
         "NodeAttributes": {
            "Latitude": 53.59,
            "Longitude": -1.51,
            "InitialPopulation": 13280,
            "Id": 1403667279,
            "FacilityName": "Darton"
         }
      },
      {
         "NodeID": 1396196188,
         "NodeAttributes": {
            "Latitude": 53.698,
            "Longitude": -2.463,
            "InitialPopulation": 28340,
            "Id": 1396196188,
            "FacilityName": "Darwen"
         }
      },
      {
         "NodeID": 1406550704,
         "NodeAttributes": {
            "Latitude": 52.265,
            "Longitude": -1.143,
            "InitialPopulation": 16000,
            "Id": 1406550704,
            "FacilityName": "Daventry.RD"
         }
      },
      {
         "NodeID": 1426604595,
         "NodeAttributes": {
            "Latitude": 51.222,
            "Longitude": 1.4,
            "InitialPopulation": 12680,
            "Id": 1426604595,
            "FacilityName": "Deal"
         }
      },
      {
         "NodeID": 1405371209,
         "NodeAttributes": {
            "Latitude": 53.535,
            "Longitude": -1.298,
            "InitialPopulation": 22620,
            "Id": 1405371209,
            "FacilityName": "Dearne"
         }
      },
      {
         "NodeID": 1426080413,
         "NodeAttributes": {
            "Latitude": 52.105,
            "Longitude": 1.337,
            "InitialPopulation": 23090,
            "Id": 1426080413,
            "FacilityName": "Deben.RD"
         }
      },
      {
         "NodeID": 1398948671,
         "NodeAttributes": {
            "Latitude": 53.455,
            "Longitude": -2.113,
            "InitialPopulation": 22560,
            "Id": 1398948671,
            "FacilityName": "Denton"
         }
      },
      {
         "NodeID": 1415266898,
         "NodeAttributes": {
            "Latitude": 51.48,
            "Longitude": -0.035,
            "InitialPopulation": 55310,
            "Id": 1415266898,
            "FacilityName": "Deptford"
         }
      },
      {
         "NodeID": 1425097415,
         "NodeAttributes": {
            "Latitude": 52.458,
            "Longitude": 1.215,
            "InitialPopulation": 18400,
            "Id": 1425097415,
            "FacilityName": "Depwade.RD"
         }
      },
      {
         "NodeID": 1403994878,
         "NodeAttributes": {
            "Latitude": 52.915,
            "Longitude": -1.473,
            "InitialPopulation": 132760,
            "Id": 1403994878,
            "FacilityName": "Derby"
         }
      },
      {
         "NodeID": 1407796080,
         "NodeAttributes": {
            "Latitude": 53.865,
            "Longitude": -0.99,
            "InitialPopulation": 12170,
            "Id": 1407796080,
            "FacilityName": "Derwent.RD"
         }
      },
      {
         "NodeID": 1399996992,
         "NodeAttributes": {
            "Latitude": 51.333,
            "Longitude": -1.98,
            "InitialPopulation": 13030,
            "Id": 1399996992,
            "FacilityName": "Devizes.RD"
         }
      },
      {
         "NodeID": 1402749788,
         "NodeAttributes": {
            "Latitude": 53.698,
            "Longitude": -1.63,
            "InitialPopulation": 46910,
            "Id": 1402749788,
            "FacilityName": "Dewsbury"
         }
      },
      {
         "NodeID": 1420444413,
         "NodeAttributes": {
            "Latitude": 52.905,
            "Longitude": 0.623,
            "InitialPopulation": 15850,
            "Id": 1420444413,
            "FacilityName": "Docking.RD"
         }
      },
      {
         "NodeID": 1406681926,
         "NodeAttributes": {
            "Latitude": 53.515,
            "Longitude": -1.133,
            "InitialPopulation": 71170,
            "Id": 1406681926,
            "FacilityName": "Doncaster"
         }
      },
      {
         "NodeID": 1406419788,
         "NodeAttributes": {
            "Latitude": 53.56,
            "Longitude": -1.163,
            "InitialPopulation": 48760,
            "Id": 1406419788,
            "FacilityName": "Doncaster.RD"
         }
      },
      {
         "NodeID": 1395999227,
         "NodeAttributes": {
            "Latitude": 50.757,
            "Longitude": -2.49,
            "InitialPopulation": 15020,
            "Id": 1395999227,
            "FacilityName": "Dorcheser.RD"
         }
      },
      {
         "NodeID": 1396326902,
         "NodeAttributes": {
            "Latitude": 50.713,
            "Longitude": -2.447,
            "InitialPopulation": 10330,
            "Id": 1396326902,
            "FacilityName": "Dorchester"
         }
      },
      {
         "NodeID": 1413169711,
         "NodeAttributes": {
            "Latitude": 51.187,
            "Longitude": -0.305,
            "InitialPopulation": 22610,
            "Id": 1413169711,
            "FacilityName": "Dorking.and.Horley.RD"
         }
      },
      {
         "NodeID": 1412973108,
         "NodeAttributes": {
            "Latitude": 51.232,
            "Longitude": -0.332,
            "InitialPopulation": 18600,
            "Id": 1412973108,
            "FacilityName": "Dorking"
         }
      },
      {
         "NodeID": 1425818152,
         "NodeAttributes": {
            "Latitude": 51.125,
            "Longitude": 1.308,
            "InitialPopulation": 17960,
            "Id": 1425818152,
            "FacilityName": "Dover"
         }
      },
      {
         "NodeID": 1419068118,
         "NodeAttributes": {
            "Latitude": 52.577,
            "Longitude": 0.442,
            "InitialPopulation": 20220,
            "Id": 1419068118,
            "FacilityName": "Downham.RD"
         }
      },
      {
         "NodeID": 1398882992,
         "NodeAttributes": {
            "Latitude": 52.26,
            "Longitude": -2.125,
            "InitialPopulation": 12530,
            "Id": 1398882992,
            "FacilityName": "Droitwich.RD"
         }
      },
      {
         "NodeID": 1406747154,
         "NodeAttributes": {
            "Latitude": 50.94300000000001,
            "Longitude": -1.125,
            "InitialPopulation": 19450,
            "Id": 1406747154,
            "FacilityName": "Droxford.RD"
         }
      },
      {
         "NodeID": 1398620994,
         "NodeAttributes": {
            "Latitude": 53.483,
            "Longitude": -2.158,
            "InitialPopulation": 24070,
            "Id": 1398620994,
            "FacilityName": "Droylsden"
         }
      },
      {
         "NodeID": 1399079630,
         "NodeAttributes": {
            "Latitude": 52.512,
            "Longitude": -2.097,
            "InitialPopulation": 58770,
            "Id": 1399079630,
            "FacilityName": "Dudley"
         }
      },
      {
         "NodeID": 1399210817,
         "NodeAttributes": {
            "Latitude": 53.473,
            "Longitude": -2.083,
            "InitialPopulation": 16900,
            "Id": 1399210817,
            "FacilityName": "Dukinfield"
         }
      },
      {
         "NodeID": 1418150529,
         "NodeAttributes": {
            "Latitude": 51.868,
            "Longitude": 0.33,
            "InitialPopulation": 18060,
            "Id": 1418150529,
            "FacilityName": "Dunmow.RD"
         }
      },
      {
         "NodeID": 1411400322,
         "NodeAttributes": {
            "Latitude": 51.882,
            "Longitude": -0.527,
            "InitialPopulation": 16160,
            "Id": 1411400322,
            "FacilityName": "Dunstable"
         }
      },
      {
         "NodeID": 1403208670,
         "NodeAttributes": {
            "Latitude": 54.777,
            "Longitude": -1.5730000000000002,
            "InitialPopulation": 16820,
            "Id": 1403208670,
            "FacilityName": "Durham"
         }
      },
      {
         "NodeID": 1403405278,
         "NodeAttributes": {
            "Latitude": 54.777,
            "Longitude": -1.5419999999999998,
            "InitialPopulation": 31220,
            "Id": 1403405278,
            "FacilityName": "Durham.RD"
         }
      },
      {
         "NodeID": 1397178986,
         "NodeAttributes": {
            "Latitude": 51.683,
            "Longitude": -2.34,
            "InitialPopulation": 16480,
            "Id": 1397178986,
            "FacilityName": "Dursley.RD"
         }
      },
      {
         "NodeID": 1414349413,
         "NodeAttributes": {
            "Latitude": 51.635,
            "Longitude": -0.158,
            "InitialPopulation": 34610,
            "Id": 1414349413,
            "FacilityName": "E.Barnet"
         }
      },
      {
         "NodeID": 1395868283,
         "NodeAttributes": {
            "Latitude": 51.81800000000001,
            "Longitude": -2.502,
            "InitialPopulation": 20130,
            "Id": 1395868283,
            "FacilityName": "E.Dean.RD"
         }
      },
      {
         "NodeID": 1415987800,
         "NodeAttributes": {
            "Latitude": 51.532,
            "Longitude": 0.053,
            "InitialPopulation": 91060,
            "Id": 1415987800,
            "FacilityName": "E.Ham"
         }
      },
      {
         "NodeID": 1412776716,
         "NodeAttributes": {
            "Latitude": 53.032,
            "Longitude": -0.353,
            "InitialPopulation": 16040,
            "Id": 1412776716,
            "FacilityName": "E.Kesteven.RD"
         }
      },
      {
         "NodeID": 1408123695,
         "NodeAttributes": {
            "Latitude": 53.317,
            "Longitude": -0.942,
            "InitialPopulation": 15900,
            "Id": 1408123695,
            "FacilityName": "E.Retford"
         }
      },
      {
         "NodeID": 1408385840,
         "NodeAttributes": {
            "Latitude": 53.333,
            "Longitude": -0.912,
            "InitialPopulation": 20060,
            "Id": 1408385840,
            "FacilityName": "E.Retford.RD"
         }
      },
      {
         "NodeID": 1413169750,
         "NodeAttributes": {
            "Latitude": 51.51,
            "Longitude": -0.307,
            "InitialPopulation": 155580,
            "Id": 1413169750,
            "FacilityName": "Ealing"
         }
      },
      {
         "NodeID": 1404650459,
         "NodeAttributes": {
            "Latitude": 54.757,
            "Longitude": -1.3869999999999998,
            "InitialPopulation": 76090,
            "Id": 1404650459,
            "FacilityName": "Easington.RD"
         }
      },
      {
         "NodeID": 1416119025,
         "NodeAttributes": {
            "Latitude": 52.8,
            "Longitude": 0.068,
            "InitialPopulation": 21130,
            "Id": 1416119025,
            "FacilityName": "East.Elloe.RD"
         }
      },
      {
         "NodeID": 1417626110,
         "NodeAttributes": {
            "Latitude": 50.782,
            "Longitude": 0.262,
            "InitialPopulation": 27980,
            "Id": 1417626110,
            "FacilityName": "Eastbourne"
         }
      },
      {
         "NodeID": 1409630793,
         "NodeAttributes": {
            "Latitude": 51.4,
            "Longitude": -0.757,
            "InitialPopulation": 21240,
            "Id": 1409630793,
            "FacilityName": "Easthampstead.RD"
         }
      },
      {
         "NodeID": 1404912149,
         "NodeAttributes": {
            "Latitude": 50.972,
            "Longitude": -1.3530000000000002,
            "InitialPopulation": 27180,
            "Id": 1404912149,
            "FacilityName": "Eastleigh"
         }
      },
      {
         "NodeID": 1425818166,
         "NodeAttributes": {
            "Latitude": 51.242,
            "Longitude": 1.3019999999999998,
            "InitialPopulation": 18370,
            "Id": 1425818166,
            "FacilityName": "Eastry.RD"
         }
      },
      {
         "NodeID": 1390297718,
         "NodeAttributes": {
            "Latitude": 51.777,
            "Longitude": -3.212,
            "InitialPopulation": 28440,
            "Id": 1390297718,
            "FacilityName": "Ebbw.Vale"
         }
      },
      {
         "NodeID": 1397179202,
         "NodeAttributes": {
            "Latitude": 53.482,
            "Longitude": -2.34,
            "InitialPopulation": 39430,
            "Id": 1397179202,
            "FacilityName": "Eccles"
         }
      },
      {
         "NodeID": 1415004770,
         "NodeAttributes": {
            "Latitude": 51.615,
            "Longitude": -0.07200000000000001,
            "InitialPopulation": 91590,
            "Id": 1415004770,
            "FacilityName": "Edmonton"
         }
      },
      {
         "NodeID": 1411203660,
         "NodeAttributes": {
            "Latitude": 51.433,
            "Longitude": -0.555,
            "InitialPopulation": 21580,
            "Id": 1411203660,
            "FacilityName": "Egham"
         }
      },
      {
         "NodeID": 1401176923,
         "NodeAttributes": {
            "Latitude": 53.69,
            "Longitude": -1.827,
            "InitialPopulation": 17860,
            "Id": 1401176923,
            "FacilityName": "Elland"
         }
      },
      {
         "NodeID": 1392919337,
         "NodeAttributes": {
            "Latitude": 53.273,
            "Longitude": -2.878,
            "InitialPopulation": 27220,
            "Id": 1392919337,
            "FacilityName": "Ellesmere.Port"
         }
      },
      {
         "NodeID": 1413431915,
         "NodeAttributes": {
            "Latitude": 51.69,
            "Longitude": -0.272,
            "InitialPopulation": 10760,
            "Id": 1413431915,
            "FacilityName": "Elstree.RD"
         }
      },
      {
         "NodeID": 1417233086,
         "NodeAttributes": {
            "Latitude": 52.383,
            "Longitude": 0.21,
            "InitialPopulation": 13156,
            "Id": 1417233086,
            "FacilityName": "Ely.RD"
         }
      },
      {
         "NodeID": 1415004775,
         "NodeAttributes": {
            "Latitude": 51.65,
            "Longitude": -0.07200000000000001,
            "InitialPopulation": 92760,
            "Id": 1415004775,
            "FacilityName": "Enfield"
         }
      },
      {
         "NodeID": 1388463037,
         "NodeAttributes": {
            "Latitude": 54.508,
            "Longitude": -3.445,
            "InitialPopulation": 26510,
            "Id": 1388463037,
            "FacilityName": "Ennerdale.RD"
         }
      },
      {
         "NodeID": 1417101933,
         "NodeAttributes": {
            "Latitude": 51.708,
            "Longitude": 0.192,
            "InitialPopulation": 29230,
            "Id": 1417101933,
            "FacilityName": "Epping.and.Ongar.RD"
         }
      },
      {
         "NodeID": 1413431872,
         "NodeAttributes": {
            "Latitude": 51.33,
            "Longitude": -0.272,
            "InitialPopulation": 60270,
            "Id": 1413431872,
            "FacilityName": "Epsom.and.Ewell"
         }
      },
      {
         "NodeID": 1416905298,
         "NodeAttributes": {
            "Latitude": 51.475,
            "Longitude": 0.16699999999999998,
            "InitialPopulation": 36780,
            "Id": 1416905298,
            "FacilityName": "Erith"
         }
      },
      {
         "NodeID": 1425163002,
         "NodeAttributes": {
            "Latitude": 52.882,
            "Longitude": 1.217,
            "InitialPopulation": 16270,
            "Id": 1425163002,
            "FacilityName": "Erpingham.RD"
         }
      },
      {
         "NodeID": 1412776517,
         "NodeAttributes": {
            "Latitude": 51.367,
            "Longitude": -0.355,
            "InitialPopulation": 43200,
            "Id": 1412776517,
            "FacilityName": "Esher"
         }
      },
      {
         "NodeID": 1406550981,
         "NodeAttributes": {
            "Latitude": 54.567,
            "Longitude": -1.142,
            "InitialPopulation": 28810,
            "Id": 1406550981,
            "FacilityName": "Eston"
         }
      },
      {
         "NodeID": 1411007066,
         "NodeAttributes": {
            "Latitude": 51.542,
            "Longitude": -0.58,
            "InitialPopulation": 39400,
            "Id": 1411007066,
            "FacilityName": "Eton.RD"
         }
      },
      {
         "NodeID": 1400259227,
         "NodeAttributes": {
            "Latitude": 52.09,
            "Longitude": -1.95,
            "InitialPopulation": 11390,
            "Id": 1400259227,
            "FacilityName": "Evesham"
         }
      },
      {
         "NodeID": 1400455839,
         "NodeAttributes": {
            "Latitude": 52.117,
            "Longitude": -1.92,
            "InitialPopulation": 15270,
            "Id": 1400455839,
            "FacilityName": "Evesham.RD"
         }
      },
      {
         "NodeID": 1387872759,
         "NodeAttributes": {
            "Latitude": 50.722,
            "Longitude": -3.523,
            "InitialPopulation": 68180,
            "Id": 1387872759,
            "FacilityName": "Exeter"
         }
      },
      {
         "NodeID": 1388790251,
         "NodeAttributes": {
            "Latitude": 50.62300000000001,
            "Longitude": -3.407,
            "InitialPopulation": 15570,
            "Id": 1388790251,
            "FacilityName": "Exmouth"
         }
      },
      {
         "NodeID": 1398620998,
         "NodeAttributes": {
            "Latitude": 53.51,
            "Longitude": -2.158,
            "InitialPopulation": 16550,
            "Id": 1398620998,
            "FacilityName": "Failsworth"
         }
      },
      {
         "NodeID": 1375682995,
         "NodeAttributes": {
            "Latitude": 50.152,
            "Longitude": -5.073,
            "InitialPopulation": 14740,
            "Id": 1375682995,
            "FacilityName": "Falmouth"
         }
      },
      {
         "NodeID": 1406157319,
         "NodeAttributes": {
            "Latitude": 50.855,
            "Longitude": -1.198,
            "InitialPopulation": 36460,
            "Id": 1406157319,
            "FacilityName": "Fareham"
         }
      },
      {
         "NodeID": 1403208291,
         "NodeAttributes": {
            "Latitude": 51.622,
            "Longitude": -1.575,
            "InitialPopulation": 10620,
            "Id": 1403208291,
            "FacilityName": "Faringdon.RD"
         }
      },
      {
         "NodeID": 1409696314,
         "NodeAttributes": {
            "Latitude": 51.282,
            "Longitude": -0.747,
            "InitialPopulation": 16220,
            "Id": 1409696314,
            "FacilityName": "Farnborough"
         }
      },
      {
         "NodeID": 1409303090,
         "NodeAttributes": {
            "Latitude": 51.21,
            "Longitude": -0.792,
            "InitialPopulation": 22760,
            "Id": 1409303090,
            "FacilityName": "Farnham"
         }
      },
      {
         "NodeID": 1396720458,
         "NodeAttributes": {
            "Latitude": 53.545,
            "Longitude": -2.4,
            "InitialPopulation": 25270,
            "Id": 1396720458,
            "FacilityName": "Farnworth"
         }
      },
      {
         "NodeID": 1422606911,
         "NodeAttributes": {
            "Latitude": 51.317,
            "Longitude": 0.892,
            "InitialPopulation": 10850,
            "Id": 1422606911,
            "FacilityName": "Faversham"
         }
      },
      {
         "NodeID": 1404912474,
         "NodeAttributes": {
            "Latitude": 53.678,
            "Longitude": -1.357,
            "InitialPopulation": 12470,
            "Id": 1404912474,
            "FacilityName": "Featherstone"
         }
      },
      {
         "NodeID": 1403208690,
         "NodeAttributes": {
            "Latitude": 54.947,
            "Longitude": -1.5719999999999998,
            "InitialPopulation": 23050,
            "Id": 1403208690,
            "FacilityName": "Felling"
         }
      },
      {
         "NodeID": 1412317774,
         "NodeAttributes": {
            "Latitude": 51.448,
            "Longitude": -0.41,
            "InitialPopulation": 35260,
            "Id": 1412317774,
            "FacilityName": "Feltham"
         }
      },
      {
         "NodeID": 1414087264,
         "NodeAttributes": {
            "Latitude": 51.598,
            "Longitude": -0.188,
            "InitialPopulation": 59730,
            "Id": 1414087264,
            "FacilityName": "Finchley"
         }
      },
      {
         "NodeID": 1414742616,
         "NodeAttributes": {
            "Latitude": 51.525,
            "Longitude": -0.105,
            "InitialPopulation": 26740,
            "Id": 1414742616,
            "FacilityName": "Finsbury"
         }
      },
      {
         "NodeID": 1407533955,
         "NodeAttributes": {
            "Latitude": 54.018,
            "Longitude": -1.017,
            "InitialPopulation": 17640,
            "Id": 1407533955,
            "FacilityName": "Flaxton.RD"
         }
      },
      {
         "NodeID": 1391739767,
         "NodeAttributes": {
            "Latitude": 53.918,
            "Longitude": -3.028,
            "InitialPopulation": 24430,
            "Id": 1391739767,
            "FacilityName": "Fleetwood"
         }
      },
      {
         "NodeID": 1390953254,
         "NodeAttributes": {
            "Latitude": 53.243,
            "Longitude": -3.132,
            "InitialPopulation": 11750,
            "Id": 1390953254,
            "FacilityName": "Flint"
         }
      },
      {
         "NodeID": 1424704035,
         "NodeAttributes": {
            "Latitude": 51.085,
            "Longitude": 1.162,
            "InitialPopulation": 19450,
            "Id": 1424704035,
            "FacilityName": "Folkestone"
         }
      },
      {
         "NodeID": 1425294040,
         "NodeAttributes": {
            "Latitude": 52.593,
            "Longitude": 1.24,
            "InitialPopulation": 20950,
            "Id": 1425294040,
            "FacilityName": "Forehoe.and.Henstead.RD"
         }
      },
      {
         "NodeID": 1419854573,
         "NodeAttributes": {
            "Latitude": 52.772,
            "Longitude": 0.542,
            "InitialPopulation": 10000,
            "Id": 1419854573,
            "FacilityName": "Freebridge.Lynn.RD"
         }
      },
      {
         "NodeID": 1414414947,
         "NodeAttributes": {
            "Latitude": 51.617,
            "Longitude": -0.145,
            "InitialPopulation": 25240,
            "Id": 1414414947,
            "FacilityName": "Friern.Barnet"
         }
      },
      {
         "NodeID": 1409827391,
         "NodeAttributes": {
            "Latitude": 51.31800000000001,
            "Longitude": -0.73,
            "InitialPopulation": 16230,
            "Id": 1409827391,
            "FacilityName": "Frimley.and.Camberley"
         }
      },
      {
         "NodeID": 1397310004,
         "NodeAttributes": {
            "Latitude": 51.225,
            "Longitude": -2.323,
            "InitialPopulation": 12000,
            "Id": 1397310004,
            "FacilityName": "Frome"
         }
      },
      {
         "NodeID": 1396916790,
         "NodeAttributes": {
            "Latitude": 51.243,
            "Longitude": -2.367,
            "InitialPopulation": 10220,
            "Id": 1396916790,
            "FacilityName": "Frome.RD"
         }
      },